City_ID,City,Country,Lat,Lng,Max Temp,Humidity,Cloudiness,Wind Speed,Current Description
0,Busselton,AU,-33.65,115.3333,48.99,90,0,3.0,clear sky
1,Cabo San Lucas,MX,22.8909,-109.9124,82.81,57,75,4.0,broken clouds
2,Severo-Kurilsk,RU,50.6789,156.125,42.73,94,42,14.65,scattered clouds
3,Kapaa,US,22.0752,-159.319,73.72,70,1,1.01,clear sky
4,Sao Filipe,CV,14.8961,-24.4956,77.61,75,100,4.76,overcast clouds
5,Rikitea,PF,-23.1203,-134.9692,73.65,74,1,4.94,clear sky
6,Bluff,NZ,-46.6,168.3333,45.81,92,67,7.96,broken clouds
7,East London,ZA,-33.0153,27.9116,74.34,23,0,20.71,clear sky
8,Mayo,US,38.8876,-76.5119,78.04,85,75,4.0,broken clouds
9,San Jose,US,37.3394,-121.895,62.28,84,90,5.75,overcast clouds
10,Bemidji,US,47.4736,-94.8803,62.89,100,1,3.44,light rain
11,Torbay,CA,47.6666,-52.7314,65.75,76,75,23.02,broken clouds
12,Jalu,LY,29.0331,21.5482,106.39,12,0,15.32,clear sky
13,Naze,JP,28.3667,129.4833,76.5,90,100,5.7,overcast clouds
14,Jibuti,DJ,11.5,42.5,104.04,13,13,3.11,few clouds
15,Khani,GE,41.9563,42.9566,76.57,63,8,7.47,clear sky
16,Bethel,US,41.3712,-73.414,73.49,87,90,1.01,overcast clouds
17,Khatanga,RU,71.9667,102.5,52.32,41,95,8.61,overcast clouds
18,Zomba,MW,-15.386,35.3188,78.8,34,40,3.44,scattered clouds
19,Bambous Virieux,MU,-20.3428,57.7575,70.21,94,75,5.75,moderate rain
20,Hasaki,JP,35.7333,140.8333,72.0,88,100,4.05,overcast clouds
21,Sistranda,NO,63.7256,8.834,57.16,73,100,5.95,overcast clouds
22,Moindou,NC,-21.6924,165.677,67.95,77,62,4.41,broken clouds
23,Hithadhoo,MV,-0.6,73.0833,82.47,72,94,14.83,overcast clouds
24,Chuy,UY,-33.6971,-53.4616,57.72,85,22,9.19,few clouds
25,Ribeira Grande,PT,38.5167,-28.7,70.2,78,20,5.75,few clouds
26,Klaksvik,FO,62.2266,-6.589,50.92,91,89,16.33,overcast clouds
27,Pandan,PH,14.0453,124.1694,81.03,79,18,5.91,few clouds
28,Ushuaia,AR,-54.8,-68.3,40.66,65,0,11.5,clear sky
29,Carnarvon,AU,-24.8667,113.6333,53.67,42,100,3.44,overcast clouds
30,Port Alfred,ZA,-33.5906,26.891,63.32,58,26,29.75,scattered clouds
31,Makakilo City,US,21.3469,-158.0858,73.4,78,1,3.44,clear sky
32,Saint-Joseph,RE,-21.3667,55.6167,76.21,79,34,7.25,light rain
33,Tuktoyaktuk,CA,69.4541,-133.0374,33.4,89,100,8.23,overcast clouds
34,Albany,US,42.6001,-73.9662,72.0,70,99,7.63,overcast clouds
35,Sysert,RU,56.4953,60.8192,76.98,80,92,4.52,overcast clouds
36,Auki,SB,-8.7676,160.7034,77.13,88,98,5.1,overcast clouds
37,Kjopsvik,NO,68.097,16.3742,53.47,62,100,5.35,overcast clouds
38,Waipawa,NZ,-41.4122,175.5153,60.8,88,90,11.5,overcast clouds
39,Katiola,CI,8.1333,-5.1,83.03,54,80,3.0,broken clouds
40,Kununurra,AU,-15.7667,128.7333,73.38,40,75,6.91,broken clouds
41,Kodiak,US,57.79,-152.4072,49.51,87,90,10.36,light rain
42,Avarua,CK,-21.2078,-159.775,73.45,78,90,10.36,light intensity drizzle
43,Hermanus,ZA,-34.4187,19.2345,60.8,66,19,21.61,few clouds
44,Mar Del Plata,AR,-38.0023,-57.5575,47.12,57,90,3.0,light rain
45,Pevek,RU,69.7008,170.3133,39.67,57,100,5.68,overcast clouds
46,Mitrofanovka,RU,49.9708,39.6939,91.4,44,57,10.18,broken clouds
47,Punta Arenas,CL,-53.15,-70.9167,32.0,93,0,10.36,clear sky
48,Antalaha,MG,-14.9003,50.2788,73.49,81,1,11.45,light rain
49,Sangar,RU,63.9242,127.4739,64.87,65,96,2.33,overcast clouds
50,Hilo,US,19.7297,-155.09,73.13,85,90,0.0,overcast clouds
51,Qasigiannguit,GL,68.8193,-51.1922,41.25,96,100,6.2,overcast clouds
52,Mataura,NZ,-46.1927,168.8643,45.48,98,100,3.13,overcast clouds
53,Verkhnyaya Inta,RU,65.9811,60.3094,62.15,73,100,4.29,overcast clouds
54,Dikson,RU,73.5069,80.5464,31.95,91,100,4.56,overcast clouds
55,Yellowknife,CA,62.456,-114.3525,61.32,100,75,9.22,broken clouds
56,Cherskiy,RU,68.75,161.3,63.18,42,100,3.76,overcast clouds
57,Faanui,PF,-16.4833,-151.75,80.74,70,0,7.94,clear sky
58,Mugur-Aksy,RU,50.35,90.5,52.36,51,100,7.96,overcast clouds
59,Henties Bay,NA,-22.116,14.2845,65.62,61,1,11.86,clear sky
60,Anadyr,RU,64.75,177.4833,36.1,80,20,2.24,few clouds
61,Bisho,ZA,-32.8472,27.4422,68.63,27,5,16.73,clear sky
62,Methoni,GR,36.8197,21.7049,93.06,63,0,18.1,clear sky
63,Ilulissat,GL,69.2167,-51.1,41.02,93,75,6.91,light intensity drizzle rain
64,Narsaq,GL,60.9167,-46.05,46.62,85,98,2.39,overcast clouds
65,Tortoli,IT,39.9256,9.6572,80.42,54,40,13.8,scattered clouds
66,Acapulco,MX,16.8634,-99.8901,73.22,88,90,0.0,overcast clouds
67,Ocos,GT,14.5094,-92.1933,83.32,79,100,9.26,overcast clouds
68,Matagami,CA,49.7502,-77.6328,64.51,100,90,0.0,overcast clouds
69,Dalbandin,PK,28.8947,64.4101,98.17,8,0,18.52,clear sky
70,Puerto Ayora,EC,-0.7393,-90.3518,72.55,92,100,4.0,overcast clouds
71,Itarema,BR,-2.9248,-39.9167,83.61,62,3,8.28,clear sky
72,Chernyshevskiy,RU,63.0128,112.4714,67.91,57,100,1.86,overcast clouds
73,Hobart,AU,-42.8794,147.3294,49.86,86,75,4.0,broken clouds
74,Manicore,BR,-5.8092,-61.3003,78.75,83,20,5.75,few clouds
75,Qaanaaq,GL,77.484,-69.3632,39.15,74,20,0.65,few clouds
76,Bathsheba,BB,13.2167,-59.5167,84.81,61,40,20.71,scattered clouds
77,Bengkulu,ID,-3.8004,102.2655,78.03,85,94,2.86,moderate rain
78,Mikhaylovka,RU,50.06,43.2379,93.94,31,25,9.91,light rain
79,Isangel,VU,-19.55,169.2667,73.65,67,13,18.03,few clouds
80,Kamenka,RU,51.3223,42.7678,90.07,41,10,5.03,clear sky
81,Coihaique,CL,-45.5752,-72.0662,31.95,93,20,4.61,few clouds
82,Butaritari,KI,3.0707,172.7902,83.53,75,100,14.99,light rain
83,Barrow,US,71.2906,-156.7887,33.82,86,90,12.66,mist
84,Broome,US,42.2506,-75.833,72.9,86,20,1.99,few clouds
85,Vaini,TO,-21.2,-175.2,69.96,78,75,11.5,broken clouds
86,Tasiilaq,GL,65.6145,-37.6368,51.96,61,100,4.0,overcast clouds
87,Lebu,CL,-37.6167,-73.65,43.11,83,15,5.03,few clouds
88,Saint-Philippe,RE,-21.3585,55.7679,77.22,81,46,11.03,light rain
89,Lagoa,PT,39.05,-27.9833,65.93,84,38,13.06,scattered clouds
90,Half Moon Bay,US,37.4636,-122.4286,61.81,89,90,6.91,mist
91,Egvekinot,RU,66.3167,-179.1667,38.97,61,46,2.04,scattered clouds
92,Puerto Colombia,CO,10.9878,-74.9547,75.29,82,100,11.95,overcast clouds
93,Lata,PT,40.1629,-8.3327,82.49,47,5,10.94,clear sky
94,Port Elizabeth,ZA,-33.918,25.5701,67.1,55,20,28.77,few clouds
95,Sorland,NO,67.667,12.6934,50.07,76,100,17.2,overcast clouds
96,Mathbaria,BD,22.2876,89.9593,83.5,81,29,9.24,scattered clouds
97,Conde,BR,-7.2597,-34.9075,80.06,65,0,13.8,clear sky
98,Buchanan,LR,5.8808,-10.0467,85.96,73,100,2.8,light rain
99,Cabedelo,BR,-6.9811,-34.8339,81.27,63,7,18.68,clear sky
100,Casablanca,MA,33.5928,-7.6192,86.0,61,0,18.41,clear sky
101,Bredasdorp,ZA,-34.5322,20.0403,63.72,42,18,21.85,few clouds
102,Salina,US,38.8403,-97.6114,69.93,90,40,3.0,scattered clouds
103,Patan,NP,27.6667,85.3333,73.78,83,75,2.3,broken clouds
104,Murray,US,40.6669,-111.888,68.85,55,1,1.99,clear sky
105,Kati,ML,12.7441,-8.0726,89.01,25,14,12.26,few clouds
106,Launceston,AU,-41.45,147.1667,52.81,92,90,1.01,drizzle
107,Cape Town,ZA,-33.9258,18.4232,63.1,56,75,5.01,broken clouds
108,Jamestown,US,42.097,-79.2353,72.99,68,90,13.8,overcast clouds
109,Iqaluit,CA,63.7506,-68.5145,33.53,93,90,11.01,overcast clouds
110,Altamira,BR,-3.2033,-52.2064,78.89,89,40,3.44,scattered clouds
111,Chokurdakh,RU,70.6333,147.9167,61.92,55,100,10.67,overcast clouds
112,Arroyo,ES,41.6096,-4.7969,87.15,26,0,17.27,clear sky
113,Katsuura,JP,35.1333,140.3,76.1,88,100,1.9,heavy intensity rain
114,Saskylakh,RU,71.9167,114.0833,47.91,55,58,6.51,broken clouds
115,Porto Novo,BJ,6.4965,2.6036,73.22,85,100,6.55,moderate rain
116,Bitin,PH,14.0939,121.2128,84.36,88,57,2.21,broken clouds
117,Nikolskoye,RU,59.7035,30.7861,78.69,64,100,6.26,overcast clouds
118,Avera,US,33.194,-82.5271,74.71,73,37,7.05,scattered clouds
119,Pierre,US,44.3683,-100.351,63.99,88,75,12.66,mist
120,Cobija,BO,-11.0267,-68.7692,78.57,56,0,4.05,clear sky
121,Gat,IL,31.61,34.7642,91.4,43,0,15.99,clear sky
122,Aksu,CN,41.1231,80.2644,87.1,18,1,8.55,clear sky
123,Tena,EC,-0.9833,-77.8167,70.56,74,7,0.58,clear sky
124,Port Hardy,CA,50.6996,-127.4199,55.58,94,20,2.3,few clouds
125,Saint-Francois,FR,46.4154,3.9054,78.67,46,0,6.91,clear sky
126,Christchurch,NZ,-43.5333,172.6333,48.2,100,90,3.44,mist
127,Pochutla,MX,15.7432,-96.4661,73.22,75,100,3.2,overcast clouds
128,Suez,EG,29.9737,32.5263,98.51,19,0,15.08,clear sky
129,Kyra,RU,49.5776,111.9753,59.36,93,100,3.65,overcast clouds
130,Zarubino,RU,42.63,131.0922,61.92,94,31,2.86,scattered clouds
131,Virginia Beach,US,36.8529,-75.978,79.0,89,99,1.01,overcast clouds
132,Kathmandu,NP,27.7167,85.3167,73.4,83,75,2.3,broken clouds
133,Raymondville,US,26.4815,-97.7831,80.91,79,9,13.67,clear sky
134,Barra Do Garcas,BR,-15.89,-52.2567,72.18,64,0,0.0,clear sky
135,Tiksi,RU,71.6872,128.8694,36.43,78,6,5.46,clear sky
136,Shihezi,CN,44.3,86.0333,75.02,31,85,7.36,overcast clouds
137,Fairbanks,US,64.8378,-147.7164,60.93,71,40,3.44,scattered clouds
138,Yen Bai,VN,21.7,104.8667,84.74,77,68,1.48,broken clouds
139,Ferreira Do Alentejo,PT,38.05,-8.0333,81.99,39,0,9.22,clear sky
140,Castro,BR,-24.7911,-50.0119,63.77,82,80,7.87,broken clouds
141,Atuona,PF,-9.8,-139.0333,78.69,74,44,20.18,light rain
142,Verkhnevilyuysk,RU,63.4453,120.3167,70.57,67,91,3.15,overcast clouds
143,Hofn,IS,64.2539,-15.2082,59.02,58,41,6.91,haze
144,Tanout,NE,14.9709,8.8879,105.3,11,0,8.05,clear sky
145,Bucerias,MX,20.75,-105.3333,72.99,94,75,5.75,broken clouds
146,Lorengau,PG,-2.0226,147.2712,80.38,80,39,5.46,scattered clouds
147,Celestun,MX,20.8667,-90.4,77.5,79,100,6.15,overcast clouds
148,Saldanha,ZA,-33.0117,17.9442,62.65,62,63,8.3,broken clouds
149,Esperance,AU,-33.8667,121.9,51.8,71,0,8.05,clear sky
150,Homer,US,59.6425,-151.5483,50.81,71,75,3.44,light rain
151,Amboasary,MG,-25.0333,46.3833,80.44,42,0,4.03,clear sky
152,Guarapari,BR,-20.6667,-40.4975,67.89,70,70,8.77,broken clouds
153,Belaya Gora,RU,68.5333,146.4167,73.18,35,66,7.09,broken clouds
154,Avigliano,IT,40.7329,15.72,85.68,33,6,10.87,clear sky
155,Muana,BR,-1.5283,-49.2167,83.86,64,66,4.74,broken clouds
156,San Rafael,AR,-34.6177,-68.3301,40.08,44,97,7.67,overcast clouds
157,Ahipara,NZ,-35.1667,173.1667,60.37,89,100,11.03,overcast clouds
158,Pechenga,RU,69.5259,31.1703,52.66,53,100,8.68,overcast clouds
159,Soteapan,MX,18.2333,-94.8667,75.63,85,100,1.03,overcast clouds
160,Marienburg,PL,54.0359,19.0266,73.89,63,63,9.98,broken clouds
161,Soltvadkert,HU,46.5789,19.3939,87.82,38,2,9.35,clear sky
162,Martapura,ID,-3.4167,114.85,78.8,94,20,4.61,few clouds
163,Monte Alegre De Minas,BR,-18.8706,-48.8808,70.45,34,5,15.03,clear sky
164,Mount Isa,AU,-20.7333,139.5,55.17,54,0,8.05,clear sky
165,Karasjok,NO,69.4719,25.5112,57.31,51,100,5.86,overcast clouds
166,Sholapur,IN,17.6833,75.9167,81.77,65,100,9.15,light rain
167,Victoria,HK,22.2855,114.1577,86.38,89,99,1.99,moderate rain
168,Fort Nelson,CA,58.8053,-122.7002,58.59,88,20,0.0,few clouds
169,Marand,IR,38.4329,45.7749,95.34,14,100,16.37,overcast clouds
170,Shimoda,JP,34.6667,138.95,74.16,83,100,2.21,overcast clouds
171,Miri,MY,4.4148,114.0089,82.54,78,40,4.61,scattered clouds
172,Sovetskiy,RU,61.3614,63.5842,58.33,75,100,3.24,overcast clouds
173,Bardiyah,LY,31.7561,25.0865,88.14,50,0,18.99,clear sky
174,Nyrob,RU,60.733,56.7202,78.33,40,31,5.82,scattered clouds
175,Shumskiy,RU,54.8318,99.1328,61.79,63,88,2.42,overcast clouds
176,Aykhal,RU,66.0,111.5,68.72,54,100,10.09,overcast clouds
177,Pemangkat,ID,1.1667,108.9667,82.35,73,10,5.41,heavy intensity rain
178,Taree,AU,-31.9,152.4667,55.58,93,0,0.0,clear sky
179,Panguipulli,CL,-39.6333,-72.3333,31.71,95,26,2.04,scattered clouds
180,Pouembout,NC,-21.1333,164.9,71.08,78,80,5.1,broken clouds
181,Vardo,NO,70.3705,31.1107,53.8,75,100,4.68,overcast clouds
182,Mindelo,CV,16.8901,-24.9804,80.15,61,20,24.16,few clouds
183,Cidreira,BR,-30.1811,-50.2056,60.48,91,100,13.06,heavy intensity rain
184,Havoysund,NO,70.9963,24.6622,49.08,94,100,19.46,light rain
185,Mahebourg,MU,-20.4081,57.7,69.8,94,75,5.75,moderate rain
186,Kazerun,IR,29.6195,51.6541,101.46,10,3,17.87,clear sky
187,Benito Juarez,MX,19.385,-99.165,57.99,71,75,4.0,broken clouds
188,Resavica,RS,44.0408,21.5816,82.08,50,14,11.07,few clouds
189,Bakchar,RU,57.0186,82.0711,59.23,69,88,5.66,overcast clouds
190,Odienne,CI,9.51,-7.5692,84.07,55,83,4.16,broken clouds
191,Hobyo,SO,5.3505,48.5268,81.55,70,15,31.25,few clouds
192,Paita,PE,-5.0892,-81.1144,65.53,81,17,12.24,few clouds
193,Nanyuki,KE,0.0167,37.0728,74.46,39,71,8.01,broken clouds
194,Luderitz,NA,-26.6481,15.1594,67.57,48,34,15.03,scattered clouds
195,Saint George,US,37.1041,-113.5841,75.54,29,1,1.99,clear sky
196,Vila Velha,BR,-20.3297,-40.2925,67.95,83,75,1.14,broken clouds
197,Molina,CL,-35.1167,-71.2833,41.38,100,90,10.36,overcast clouds
198,Georgetown,MY,5.4112,100.3354,85.95,75,20,3.44,few clouds
199,Samarai,PG,-10.6167,150.6667,78.89,87,99,9.01,overcast clouds
200,Lasa,IT,46.6166,10.7002,79.63,58,78,4.34,broken clouds
201,Baykit,RU,61.67,96.37,59.36,86,100,3.6,moderate rain
202,Tura,IN,25.5198,90.2201,76.23,95,86,5.17,light rain
203,Shetpe,KZ,44.1667,52.1167,105.3,11,7,9.28,clear sky
204,Mildura,AU,-34.2,142.15,42.76,87,40,4.61,scattered clouds
205,Peleduy,RU,59.6289,112.7406,71.19,57,26,0.83,scattered clouds
206,Yeppoon,AU,-23.1333,150.7333,59.0,88,90,3.44,drizzle
207,Forbes,AU,-33.3833,148.0167,43.59,96,6,4.85,clear sky
208,Iisalmi,FI,63.5592,27.1907,75.22,39,69,6.8,broken clouds
209,Dunedin,NZ,-45.8742,170.5036,52.81,88,93,5.01,overcast clouds
210,Lakes Entrance,AU,-37.8811,147.981,40.17,87,8,11.03,clear sky
211,Kharp,RU,66.8014,65.8081,60.37,43,100,6.89,overcast clouds
212,Longyearbyen,SJ,78.2186,15.6401,40.84,81,75,5.75,broken clouds
213,Provideniya,RU,64.3833,-173.3,41.81,90,100,11.65,overcast clouds
214,Thompson,CA,55.7435,-97.8558,50.16,66,1,3.44,clear sky
215,Balarampur,IN,23.1167,86.2167,91.81,70,100,6.44,overcast clouds
216,Aden,YE,12.7794,45.0367,88.63,64,7,9.71,clear sky
217,Comodoro Rivadavia,AR,-45.8667,-67.5,40.86,60,75,17.27,broken clouds
218,Batemans Bay,AU,-35.7167,150.1833,47.91,77,0,6.64,moderate rain
219,Todos Santos,MX,23.45,-110.2167,82.31,79,16,3.89,few clouds
220,Dingle,PH,10.9995,122.6711,79.09,86,100,2.3,overcast clouds
221,Norman Wells,CA,65.282,-126.8329,55.44,88,40,2.3,scattered clouds
222,Lapua,FI,62.9693,23.0088,80.47,43,7,8.19,clear sky
223,Okhotsk,RU,59.3833,143.3,53.78,79,1,3.33,clear sky
224,Surt,LY,31.2089,16.5887,88.48,44,0,12.62,clear sky
225,New Norfolk,AU,-42.7826,147.0587,49.5,85,97,1.01,overcast clouds
226,Sitka,US,57.0531,-135.33,53.49,94,90,4.61,mist
227,Kidal,ML,18.4411,1.4078,106.05,10,5,3.42,clear sky
228,Coffs Harbour,AU,-30.3,153.1333,46.4,93,0,6.91,clear sky
229,Alihe,CN,50.5667,123.7167,63.16,94,47,0.51,moderate rain
230,Rizhao,CN,35.4275,119.4553,71.31,94,8,7.49,clear sky
231,Oranjestad,AW,12.524,-70.027,83.91,77,20,5.99,few clouds
232,Codrington,AU,-38.2667,141.9667,52.74,94,96,13.0,light rain
233,Nouadhibou,MR,20.931,-17.0347,78.78,61,6,13.8,clear sky
234,Gonbad-E Qabus,IR,37.25,55.1672,110.35,8,0,15.93,clear sky
235,Torit,SS,4.4133,32.5678,91.26,37,97,3.06,overcast clouds
236,Derzhavinsk,KZ,51.1,66.3167,80.74,28,98,10.65,overcast clouds
237,Ponta Do Sol,PT,32.6667,-17.1,73.71,63,0,2.01,clear sky
238,Port Blair,IN,11.6667,92.75,83.1,76,100,9.82,overcast clouds
239,Cache Creek,CA,50.8101,-121.3246,55.99,88,1,2.3,clear sky
240,Meulaboh,ID,4.1363,96.1285,78.04,84,99,3.2,overcast clouds
241,Abu Dhabi,AE,24.4667,54.3667,113.02,10,0,9.22,clear sky
242,Binzhou,CN,37.3667,118.0167,83.68,52,85,5.1,light rain
243,Banepa,NP,27.6298,85.5214,71.92,83,75,2.3,broken clouds
244,Geraldton,AU,-28.7667,114.6,51.8,76,96,12.66,overcast clouds
245,Mareeba,AU,-17.0,145.4333,68.43,88,36,3.09,scattered clouds
246,Arraial Do Cabo,BR,-22.9661,-42.0278,73.36,78,0,9.22,clear sky
247,Upernavik,GL,72.7868,-56.1549,39.65,75,100,8.46,overcast clouds
248,Pozo Colorado,PY,-23.4923,-58.7972,78.67,46,0,11.36,clear sky
249,Taoudenni,ML,22.6783,-3.9836,113.49,7,0,2.19,clear sky
250,Sola,VU,-13.8833,167.55,77.67,78,40,9.22,scattered clouds
251,Severnoye,RU,56.3491,78.3619,62.22,73,100,4.56,overcast clouds
252,Bowen,AU,-20.0167,148.2333,68.22,84,82,4.72,broken clouds
253,Urumqi,CN,43.801,87.6005,74.35,20,40,4.47,light rain
254,Burns Lake,CA,54.2331,-125.7533,47.62,90,12,2.24,few clouds
255,Nanortalik,GL,60.1432,-45.2371,46.27,92,98,4.32,overcast clouds
256,Hambantota,LK,6.1241,81.1185,86.34,74,40,13.8,heavy intensity rain
257,Pathein,MM,16.7833,94.7333,80.65,85,100,2.55,overcast clouds
258,Ahuimanu,US,21.4447,-157.8378,75.45,77,20,0.0,few clouds
259,Great Falls,US,47.5002,-111.3008,61.41,72,75,4.0,broken clouds
260,Suzun,RU,53.7841,82.3116,63.03,64,100,5.39,overcast clouds
261,Swellendam,ZA,-34.0226,20.4417,62.98,48,26,13.96,scattered clouds
262,Talnakh,RU,69.4865,88.3972,49.51,55,98,24.85,overcast clouds
263,Santa Isabel Do Rio Negro,BR,-0.4139,-65.0192,77.25,87,91,2.89,overcast clouds
264,Luocheng,CN,29.3848,104.0286,75.83,90,98,2.24,overcast clouds
265,Panama City,PA,8.9936,-79.5197,79.18,89,40,3.44,scattered clouds
266,Quang Ngai,VN,15.1167,108.8,81.14,87,32,1.86,scattered clouds
267,Berlevag,NO,70.8578,29.0864,48.7,73,100,13.38,overcast clouds
268,Sur,OM,22.5667,59.5289,99.01,38,0,9.69,clear sky
269,Zhezkazgan,KZ,47.8043,67.7144,76.51,31,83,8.19,broken clouds
270,Vzmorye,RU,54.6961,20.2361,69.89,62,0,9.95,clear sky
271,Antofagasta,CL,-23.65,-70.4,55.4,71,40,8.05,scattered clouds
272,Port Hedland,AU,-20.3167,118.5667,62.65,48,75,8.05,broken clouds
273,Ballina,AU,-28.8667,153.5667,53.94,84,40,1.14,scattered clouds
274,Chinsali,ZM,-10.5414,32.0816,78.15,27,2,7.47,clear sky
275,Lae,PG,-6.7221,146.9847,77.16,84,28,1.39,scattered clouds
276,Lavrentiya,RU,65.5833,-171.0,42.48,86,100,8.21,overcast clouds
277,Coquimbo,CL,-29.9533,-71.3436,53.33,100,90,6.91,overcast clouds
278,Surman,LY,32.7567,12.5716,96.21,26,0,18.03,clear sky
279,Raga,SS,8.4596,25.678,98.17,27,37,5.77,scattered clouds
280,Arman,RU,59.7,150.1667,54.54,90,79,3.24,light rain
281,Metro,ID,-5.1131,105.3067,76.98,88,59,5.01,broken clouds
282,Axim,GH,4.8699,-2.2405,80.92,74,100,8.39,overcast clouds
283,Palauig,PH,15.435,119.9045,82.06,78,98,1.05,overcast clouds
284,Husavik,IS,66.0449,-17.3389,66.11,50,1,6.6,clear sky
285,Alofi,NU,-19.0595,-169.9187,73.4,68,99,19.57,overcast clouds
286,Adrar,MR,20.5022,-10.0711,104.09,8,87,10.92,overcast clouds
287,Mizdah,LY,31.4451,12.9801,105.31,7,8,8.79,clear sky
288,Kavieng,PG,-2.5744,150.7967,81.73,75,71,8.75,broken clouds
289,Kiama,AU,-34.6833,150.8667,55.38,67,0,8.99,clear sky
290,Naryan-Mar,RU,67.6713,53.087,70.29,29,7,4.16,clear sky
291,Primorka,RU,47.2836,39.0625,92.16,66,100,9.57,overcast clouds
292,Valera,VE,9.3178,-70.6036,74.64,83,88,0.18,overcast clouds
293,Broken Hill,AU,-31.95,141.4333,42.51,87,0,4.61,clear sky
294,Innisfail,AU,-17.5333,146.0333,70.93,84,100,8.93,overcast clouds
295,Pincher Creek,CA,49.4833,-113.952,62.96,89,75,11.5,broken clouds
296,Kruisfontein,ZA,-34.0033,24.7314,64.89,59,0,26.75,clear sky
297,Worthington,US,40.0931,-83.018,77.0,73,1,12.66,clear sky
298,Padang,ID,-0.9492,100.3543,82.45,88,100,4.88,overcast clouds
299,Vila Franca Do Campo,PT,37.7167,-25.4333,66.61,89,69,15.88,broken clouds
300,Mahibadhoo,MV,3.7833,72.9667,83.19,73,99,11.52,overcast clouds
301,Lazaro Cardenas,MX,17.9583,-102.2,75.15,80,100,7.56,overcast clouds
302,Uruzgan,AF,32.8333,66.0,87.6,5,0,13.27,clear sky
303,Mazamari,PE,-11.3258,-74.5308,72.77,70,43,0.56,scattered clouds
304,Santa Fe,AR,-31.6333,-60.7,53.01,91,100,11.99,overcast clouds
305,Korla,CN,41.7597,86.1469,88.32,17,100,11.25,overcast clouds
306,Montrose,US,38.4166,-108.2673,41.34,76,79,2.19,broken clouds
307,Sambava,MG,-14.2667,50.1667,75.65,73,1,11.7,clear sky
308,Vysokogornyy,RU,50.1167,139.15,54.45,99,100,3.24,overcast clouds
309,San Remo,IT,43.8182,7.7612,82.72,74,34,8.01,scattered clouds
310,Pangnirtung,CA,66.1451,-65.7125,50.0,57,75,17.27,broken clouds
311,Nome,US,64.5011,-165.4064,51.87,87,90,8.05,overcast clouds
312,Tam Ky,VN,15.5667,108.4833,82.38,81,38,1.88,scattered clouds
313,Castle Rock,US,39.3722,-104.8561,57.58,95,100,3.0,overcast clouds
314,Raudeberg,NO,61.9875,5.1352,59.0,77,75,14.97,broken clouds
315,Songea,TZ,-10.6833,35.65,75.99,31,0,5.46,clear sky
316,Urdoma,RU,61.7533,48.5442,83.21,33,15,5.3,few clouds
317,Sulangan,PH,11.1373,123.7228,85.39,69,100,4.32,light rain
318,Ferrol,ES,43.4832,-8.2369,64.4,82,20,8.05,few clouds
319,Makaleng,BW,-20.9,27.2833,79.29,16,0,6.58,clear sky
320,Touros,BR,-5.1989,-35.4608,81.5,52,93,17.6,overcast clouds
321,Zhoucheng,CN,35.9122,116.3117,86.05,41,100,9.1,overcast clouds
322,Seoul,KR,37.5683,126.9778,74.71,76,0,5.75,clear sky
323,Cody,US,44.5263,-109.0565,57.63,75,20,3.44,few clouds
324,Lakota,CI,5.8528,-5.6883,85.15,58,100,1.97,overcast clouds
325,Lompoc,US,34.6391,-120.4579,61.79,82,90,4.61,mist
326,Talara,PE,-4.5772,-81.2719,66.97,78,5,14.72,clear sky
327,Akureyri,IS,65.6835,-18.0878,66.13,32,0,25.32,clear sky
328,Polis,CY,35.0367,32.4264,92.28,43,0,9.1,clear sky
329,Xuddur,SO,4.1213,43.8894,88.63,31,82,19.37,broken clouds
330,Lage,DE,51.9922,8.793,78.35,62,100,1.99,overcast clouds
331,Dehloran,IR,32.6941,47.2679,114.21,4,0,6.87,clear sky
332,Marystown,CA,47.1666,-55.1483,60.89,65,100,11.16,overcast clouds
333,Ak-Dovurak,RU,51.1833,90.6,55.99,80,100,3.69,overcast clouds
334,Omsukchan,RU,62.5333,155.8,58.71,55,68,1.86,broken clouds
335,Nicoya,CR,10.1483,-85.452,72.95,87,22,0.27,few clouds
336,Iralaya,HN,15.0,-83.2333,77.0,100,40,5.79,scattered clouds
337,Svetlogorsk,BY,52.6333,29.7333,85.37,50,24,3.76,few clouds
338,Tarko-Sale,RU,64.9225,77.785,59.49,37,14,15.95,few clouds
339,Saint Anthony,US,45.0205,-93.218,71.26,80,1,1.99,clear sky
340,Srednekolymsk,RU,67.45,153.6833,67.53,39,66,7.76,broken clouds
341,Taltal,CL,-25.4,-70.4833,61.07,67,100,1.97,overcast clouds
342,Moron,AR,-34.6534,-58.6198,53.96,95,100,4.0,overcast clouds
343,Marawi,PH,7.9986,124.2928,70.03,94,100,1.52,overcast clouds
344,Kuusamo,FI,65.9667,29.1833,53.6,87,90,8.05,overcast clouds
345,Akdepe,TM,42.0551,59.3788,98.6,15,0,6.55,clear sky
346,Canby,US,45.2629,-122.6926,72.77,80,1,0.0,clear sky
347,Soller,ES,39.7662,2.7152,89.35,46,0,4.0,clear sky
348,Cedar City,US,37.6775,-113.0619,64.4,42,20,5.75,few clouds
349,Ingham,US,42.6,-84.3833,73.58,99,40,6.91,scattered clouds
350,Kjollefjord,NO,70.9457,27.3465,46.38,85,100,17.54,overcast clouds
351,Maniitsoq,GL,65.4167,-52.9,42.19,93,97,5.84,overcast clouds
352,San Isidro,PE,-12.1167,-77.05,62.19,94,90,4.61,overcast clouds
353,Nepa Nagar,IN,21.4667,76.4,87.31,58,100,10.8,overcast clouds
354,Balabac,PH,7.9868,117.0645,83.3,76,54,7.94,broken clouds
355,Kirensk,RU,57.7853,108.1119,72.46,50,23,9.01,few clouds
356,Kholtoson,RU,50.2981,103.3097,55.53,98,92,3.78,overcast clouds
357,Obidos,BR,-1.9175,-55.5181,83.66,59,6,5.32,clear sky
358,Sombrerete,MX,23.6333,-103.65,59.81,68,5,5.28,clear sky
359,Fortuna,US,40.5982,-124.1573,54.93,75,90,1.01,overcast clouds
360,Harwich,GB,51.9419,1.2844,72.54,71,7,7.0,clear sky
361,Yovon,TJ,38.3141,69.0378,98.28,10,0,7.45,clear sky
362,Necochea,AR,-38.5473,-58.7368,48.69,63,100,6.49,overcast clouds
363,Kismayo,SO,-0.3582,42.5454,80.2,67,100,16.8,overcast clouds
364,Muros,ES,42.7762,-9.0603,74.16,60,100,13.76,overcast clouds
365,Thinadhoo,MV,0.5333,72.9333,82.76,73,67,13.09,broken clouds
366,Caravelas,BR,-17.7125,-39.2481,76.64,59,73,10.45,broken clouds
367,Aklavik,CA,68.2191,-135.0107,45.43,79,67,5.64,broken clouds
368,Emerald,AU,-23.5333,148.1667,57.34,82,90,8.05,overcast clouds
369,Poum,NC,-20.2333,164.0167,74.37,77,88,21.81,overcast clouds
370,Valdivia,CL,-39.8142,-73.2459,33.89,96,12,2.28,few clouds
371,Morant Bay,JM,17.8815,-76.4093,78.62,75,35,9.78,scattered clouds
372,Milkovo,RU,54.7167,158.6167,44.6,98,100,2.24,light rain
373,Brae,GB,60.3964,-1.353,51.71,67,100,11.03,overcast clouds
374,Bac Lieu,VN,9.285,105.7244,83.82,73,19,10.83,few clouds
375,Ribeira Brava,PT,32.65,-17.0667,73.71,64,0,1.28,clear sky
376,Faya,SA,18.3851,42.4509,89.71,13,82,17.38,broken clouds
377,Ozernovskiy,RU,51.5,156.5167,43.63,98,100,11.39,overcast clouds
378,Yumen,CN,40.2833,97.2,87.58,15,7,17.0,clear sky
379,Ugoofaaru,MV,5.6667,73.0,82.67,74,79,12.82,broken clouds
380,Mahanoro,MG,-19.9,48.8,72.81,69,0,7.58,clear sky
381,Sao Jose Da Coroa Grande,BR,-8.8978,-35.1478,79.0,59,37,12.03,scattered clouds
382,Ust-Kuyga,RU,70.0167,135.6,63.54,52,100,7.76,overcast clouds
383,Morrope,PE,-6.5417,-80.0111,63.0,82,20,2.3,few clouds
384,Colorado,BR,-22.8375,-51.9731,72.34,53,100,12.17,overcast clouds
385,Aksarka,RU,66.5606,67.7975,64.78,39,100,5.48,overcast clouds
386,Mtambile,TZ,-5.3833,39.7,77.77,65,3,13.6,clear sky
387,Ancud,CL,-41.8697,-73.8203,43.14,79,93,1.59,overcast clouds
388,Druzhba,UA,52.0428,33.9453,86.88,54,46,7.02,scattered clouds
389,Avanigadda,IN,16.0215,80.9181,82.54,54,100,3.94,overcast clouds
390,California City,US,35.1258,-117.9859,76.57,36,1,3.0,clear sky
391,Hohhot,CN,40.8106,111.6522,79.09,50,20,4.47,few clouds
392,Chara,RU,56.9064,118.2631,70.16,59,46,6.22,scattered clouds
393,Khuzhir,RU,53.1939,107.3397,52.97,82,69,13.51,broken clouds
394,Conakry,GN,9.538,-13.6773,84.2,74,40,6.91,light rain
395,Ulaangom,MN,49.9811,92.0667,65.41,39,12,5.37,few clouds
396,Ust-Kan,RU,50.9276,84.761,51.12,88,97,3.13,overcast clouds
397,Hervey Bay,AU,-25.2986,152.8535,62.04,87,100,12.28,light rain
398,Silikatnyy,RU,53.9896,48.3275,87.12,48,99,4.21,overcast clouds
399,Monrovia,LR,6.3005,-10.7969,85.77,71,99,2.66,overcast clouds
400,Aswan,EG,24.0934,32.907,105.75,10,0,13.02,clear sky
401,Baghramyan,AM,40.1934,44.3683,96.85,13,100,6.91,overcast clouds
402,Nioki,CD,-2.7167,17.6833,97.11,26,78,3.83,broken clouds
403,Ozerki,RU,57.6167,39.8833,78.82,61,0,2.24,clear sky
404,Kaeo,NZ,-35.1,173.7833,60.33,95,100,10.92,overcast clouds
405,Seydisehir,TR,37.4193,31.8453,80.04,38,25,13.02,scattered clouds
406,Port-Gentil,GA,-0.7193,8.7815,80.6,74,40,16.11,light rain
407,Contamana,PE,-7.3333,-75.0167,76.77,76,58,2.35,broken clouds
408,Sabzevar,IR,36.2126,57.6819,95.0,10,0,11.5,clear sky
409,Tarakan,ID,3.3,117.6333,82.4,74,20,3.44,few clouds
410,Bilibino,RU,68.0546,166.4372,55.92,38,95,5.73,overcast clouds
411,La Orilla,MX,17.9833,-102.2333,74.39,81,100,6.55,overcast clouds
412,Bechem,GH,7.0903,-2.025,88.0,51,100,1.74,overcast clouds
413,Nouakchott,MR,18.0858,-15.9785,80.53,71,29,11.56,scattered clouds
414,Shakiso,ET,5.75,38.9167,68.95,65,99,9.6,overcast clouds
415,Westport,US,41.1415,-73.3579,75.34,94,90,1.01,overcast clouds
416,Goderich,CA,43.7501,-81.7165,66.2,94,100,9.22,overcast clouds
417,Nizhniy Bestyakh,RU,61.9594,129.9086,78.28,38,0,2.24,clear sky
418,Keflavik,IS,64.0049,-22.5624,55.83,62,0,26.46,clear sky
419,Valley City,US,46.9233,-98.0032,63.59,100,75,0.0,mist
420,Parabel,RU,58.6978,81.4825,64.22,53,77,11.63,broken clouds
421,Shibetsu,JP,43.659,145.132,57.99,88,71,5.5,broken clouds
422,Soluno-Dmitriyevskoye,RU,44.4031,42.7278,87.35,62,98,7.56,overcast clouds
423,Aginskoye,RU,51.1,114.53,63.9,84,100,10.38,overcast clouds
424,Assiniboia,CA,49.6334,-105.9845,57.2,88,100,8.05,overcast clouds
425,Ileza,RU,61.0533,43.9002,80.65,48,69,4.09,broken clouds
426,Nchelenge,ZM,-9.3451,28.734,78.55,38,5,8.93,clear sky
427,Nerchinskiy Zavod,RU,51.3088,119.61,63.12,90,1,5.01,clear sky
428,Oranjemund,NA,-28.55,16.4333,63.88,51,0,13.2,clear sky
429,Waddan,LY,29.1614,16.139,107.49,8,0,14.14,clear sky
430,Hay River,CA,60.8156,-115.7999,66.18,63,40,8.05,scattered clouds
431,Northam,GB,51.0333,-4.2167,66.15,64,96,11.79,overcast clouds
432,Kota Kinabalu,MY,5.9749,116.0724,80.58,94,40,6.91,moderate rain
433,Nazarovo,RU,56.0064,90.3914,55.45,87,100,9.28,light rain
434,Onufriyivka,UA,48.9072,33.4487,93.06,34,4,9.91,clear sky
435,Morlaix,FR,48.5833,-4.0,61.12,69,90,6.91,light rain
436,Pacora,PA,9.0833,-79.2833,79.21,88,40,3.44,scattered clouds
437,Qingdao,CN,36.0986,120.3719,74.8,83,75,13.42,broken clouds
438,Sosva,RU,59.1766,61.8558,67.77,86,89,8.34,light rain
439,Airai,TL,-8.9266,125.4092,58.89,92,82,3.76,broken clouds
440,Hisua,IN,24.8333,85.4167,86.18,61,99,3.85,overcast clouds
441,Tamiahua,MX,21.2667,-97.45,79.83,84,89,3.33,overcast clouds
442,Ratnagiri,IN,16.9833,73.3,82.24,74,100,12.03,overcast clouds
443,Mackay,AU,-21.15,149.2,66.18,82,90,10.36,overcast clouds
444,Palmer,US,42.1584,-72.3287,71.62,87,90,1.99,overcast clouds
445,Leningradskiy,RU,69.3833,178.4167,36.63,76,8,9.08,clear sky
446,Florence,IT,43.7667,11.25,91.45,33,0,3.44,clear sky
447,Yar-Sale,RU,66.8333,70.8333,54.73,44,26,9.37,scattered clouds
448,Sao Joao Da Barra,BR,-21.6403,-41.0511,73.49,73,92,11.83,overcast clouds
449,Lloydminster,CA,53.2835,-110.0016,57.42,88,1,8.05,clear sky
450,Klyuchevskiy,RU,53.5317,119.4519,65.59,74,100,3.51,overcast clouds
451,San Patricio,US,28.017,-97.5169,84.09,83,85,11.5,overcast clouds
452,Kysyl-Syr,RU,63.8986,122.7617,67.46,78,47,1.48,scattered clouds
453,Kendari,ID,-3.945,122.4989,76.03,90,100,2.77,overcast clouds
454,Batagay,RU,67.6333,134.6333,73.94,37,91,2.73,overcast clouds
455,Svobodnyy,RU,51.4,128.1333,65.98,86,67,5.61,broken clouds
456,Zyryanka,RU,65.75,150.85,66.79,39,8,7.09,clear sky
457,Kirakira,SB,-10.4544,161.9205,79.27,82,100,13.38,overcast clouds
458,Isla Vista,US,34.4133,-119.861,68.34,85,1,3.44,clear sky
459,Saa,CM,4.3667,11.45,86.94,51,23,3.11,few clouds
460,Hede,CN,33.7681,120.2517,73.81,88,18,10.83,light rain
461,Plettenberg Bay,ZA,-34.0527,23.3716,59.2,65,72,19.33,broken clouds
462,Kletnya,RU,53.3897,33.2171,89.6,43,0,4.47,light rain
463,Rayong,TH,12.8333,101.4333,85.84,82,41,6.33,heavy intensity rain
464,Juneau,US,58.3019,-134.4197,55.22,94,90,3.44,mist
465,Kaitangata,NZ,-46.2817,169.8464,44.73,96,50,3.69,light rain
466,Wolbrom,PL,50.3796,19.7583,75.04,69,98,8.61,light rain
467,Daru,PG,-9.0763,143.2092,76.69,86,100,10.87,overcast clouds
468,Karatuzskoye,RU,53.6072,92.8667,61.07,77,63,1.77,broken clouds
469,San Quintin,MX,30.4833,-115.95,63.84,89,74,8.5,broken clouds
470,Boundiali,CI,9.5217,-6.4869,92.88,39,53,2.93,broken clouds
471,Mount Gambier,AU,-37.8333,140.7667,53.51,100,90,9.22,overcast clouds
472,Tuy Hoa,VN,13.0833,109.3,81.09,84,24,8.19,few clouds
473,Kalangala,UG,-0.3089,32.225,78.15,63,89,14.9,overcast clouds
474,Warmbad,NA,-28.45,18.7333,61.48,32,0,1.45,clear sky
475,Souillac,MU,-20.5167,57.5167,70.36,94,75,5.75,light rain
476,Denpasar,ID,-8.65,115.2167,82.06,89,20,11.5,few clouds
477,Alta Floresta,BR,-9.8756,-56.0861,83.39,50,78,3.76,broken clouds
478,Santa Cruz,BO,-17.8,-63.1667,73.45,83,75,17.27,broken clouds
479,Vestmannaeyjar,IS,63.4427,-20.2734,50.2,82,0,13.22,clear sky
480,Nemuro,JP,43.3236,145.575,55.72,93,4,2.59,clear sky
481,Tamasopo,MX,21.9333,-99.4833,65.16,94,83,0.65,broken clouds
482,Miles City,US,46.4083,-105.8406,61.52,71,90,5.75,overcast clouds
483,Namibe,AO,-15.1961,12.1522,80.17,50,22,11.36,few clouds
484,Aguimes,ES,27.9054,-15.4461,70.43,60,20,25.32,few clouds
485,Bowmore,US,34.9421,-79.3031,74.89,96,90,1.01,mist
486,Talavera,PH,15.6167,120.9333,80.6,89,75,4.61,broken clouds
487,Marzuq,YE,14.4,46.4667,95.68,17,14,6.85,few clouds
488,Buraydah,SA,26.326,43.975,111.65,5,0,1.19,clear sky
489,Alugan,PH,12.2188,125.4808,81.46,77,100,1.36,overcast clouds
490,Abnub,EG,27.2696,31.1511,100.22,14,0,17.07,clear sky
491,Caohai,CN,26.8661,104.2841,66.0,85,100,5.97,very heavy rain
492,Boca Do Acre,BR,-8.7522,-67.3978,80.22,65,6,1.25,clear sky
493,Orsk,RU,51.2049,58.5668,83.3,36,75,13.42,light rain
494,Port Lincoln,AU,-34.7333,135.8667,55.81,81,99,10.31,overcast clouds
495,Tapah,MY,4.2004,101.2598,86.0,74,20,1.14,few clouds
496,Cayenne,GF,4.9333,-52.3333,82.44,83,40,4.61,scattered clouds
497,Sioux Lookout,CA,50.1001,-91.917,60.87,94,90,0.0,overcast clouds
498,Lubango,AO,-14.9172,13.4925,77.43,17,88,0.36,overcast clouds
499,Am Timan,TD,11.0297,20.2827,102.99,22,5,3.0,clear sky
500,Vanimo,PG,-2.6741,141.3028,78.46,85,100,5.86,overcast clouds
501,Bara,NG,10.3744,10.7288,94.05,40,70,4.16,broken clouds
502,Saint-Felicien,CA,48.6501,-72.4491,66.88,88,90,9.22,overcast clouds
503,Pedasi,PA,7.5333,-80.0333,71.44,79,84,4.72,broken clouds
504,Namatanai,PG,-3.6667,152.4333,79.79,80,82,6.26,broken clouds
505,Belfast,GB,54.5833,-5.9333,60.62,59,75,13.8,broken clouds
506,Tonj,SS,7.2737,28.6822,98.46,28,63,4.92,broken clouds
507,Birin,NP,26.8865,88.0718,66.79,93,81,2.35,broken clouds
508,Puerto Del Rosario,ES,28.5004,-13.8627,73.4,64,20,12.66,few clouds
509,Barao De Melgaco,BR,-16.1944,-55.9675,77.52,26,70,6.24,broken clouds
510,Statesboro,US,32.4488,-81.7832,74.52,94,90,3.44,mist
511,Olafsvik,IS,64.8945,-23.7142,50.45,76,0,15.48,clear sky
512,Havre-Saint-Pierre,CA,50.2334,-63.5986,60.8,88,90,4.61,overcast clouds
513,Tuatapere,NZ,-46.1333,167.6833,45.82,93,100,4.0,overcast clouds
514,Ixtapa,MX,20.7,-105.2,72.23,94,75,5.75,broken clouds
515,Ternate,ID,0.8,127.4,81.79,74,100,1.97,overcast clouds
516,Bani Walid,LY,31.7566,13.9942,108.82,7,3,7.74,clear sky
517,Loandjili,CG,-4.7561,11.8578,80.6,74,75,11.5,broken clouds
518,Flin Flon,CA,54.7682,-101.865,60.64,82,1,8.05,clear sky
519,Najran,SA,17.4924,44.1277,101.05,5,100,22.93,overcast clouds
520,Richards Bay,ZA,-28.783,32.0377,72.93,46,0,11.16,clear sky
521,Marshalltown,US,42.0494,-92.908,72.28,94,75,5.75,broken clouds
522,Camana,PE,-16.6228,-72.7111,61.59,82,54,7.81,broken clouds
523,Rusape,ZW,-18.5278,32.1284,74.7,21,0,7.02,clear sky
524,Conceicao Do Coite,BR,-11.5639,-39.2828,74.41,56,3,7.29,clear sky
525,Susaki,JP,33.3667,133.2833,69.8,94,75,8.05,broken clouds
526,Alingsas,SE,57.9303,12.5335,79.75,52,63,10.0,broken clouds
527,Yulara,AU,-25.2406,130.9889,46.24,66,0,6.91,clear sky
528,Sechura,PE,-5.5569,-80.8222,65.59,80,5,11.32,clear sky
529,Inta,RU,66.0317,60.1659,58.06,84,100,6.08,overcast clouds
530,Salalah,OM,17.0151,54.0924,84.2,79,75,16.11,broken clouds
531,Kinsale,IE,51.7075,-8.5306,59.0,67,75,17.27,broken clouds
532,Zhangye,CN,38.9342,100.4517,81.41,32,5,4.61,clear sky
533,Golden,US,39.7555,-105.2211,60.66,92,90,1.01,overcast clouds
534,Paracuru,BR,-3.41,-39.0306,83.1,59,0,9.13,clear sky
535,Jacareacanga,BR,-6.2222,-57.7528,83.03,59,20,3.87,few clouds
536,Sinnamary,GF,5.3833,-52.95,79.79,81,31,9.86,scattered clouds
537,Acajutla,SV,13.5928,-89.8275,74.8,80,100,6.62,overcast clouds
538,Kavaratti,IN,10.5669,72.642,83.32,70,16,16.26,few clouds
539,Ostrovnoy,RU,68.0531,39.5131,44.65,94,100,8.05,overcast clouds
540,Rovaniemi,FI,66.5,25.7167,67.41,42,0,2.3,clear sky
541,Namwala,ZM,-15.7504,26.4384,82.13,20,4,3.11,clear sky
542,Marandahalli,IN,12.4,78.0,86.27,46,100,14.56,overcast clouds
543,Abashiri,JP,44.0213,144.2697,62.6,77,0,2.3,clear sky
544,Cruzeiro Do Sul,BR,-29.5128,-51.9853,64.51,98,100,2.19,light rain
545,Powell River,CA,49.8496,-124.5361,70.0,76,0,2.26,clear sky
546,Faratsiho,MG,-19.4,46.95,61.39,42,25,5.23,scattered clouds
547,Bandarbeyla,SO,9.4942,50.8122,82.71,61,56,32.14,broken clouds
548,Riverton,US,40.5219,-111.9391,66.99,59,1,9.22,clear sky
549,Kushiro,JP,42.975,144.3747,59.11,90,9,5.12,clear sky
550,Asilah,MA,35.465,-6.0348,75.2,69,20,10.36,few clouds
551,Dobele,LV,56.625,23.2786,72.95,53,100,8.79,overcast clouds
552,Kropotkin,RU,45.4375,40.5756,80.26,72,100,11.3,overcast clouds
553,Mandalgovi,MN,45.7625,106.2708,78.4,22,89,2.1,overcast clouds
554,Duekoue,CI,6.7472,-7.3496,88.27,50,96,3.11,overcast clouds
555,Turkmenabat,TM,39.0733,63.5786,96.78,11,0,16.11,clear sky
556,Nijar,ES,36.9665,-2.206,73.65,60,0,9.22,clear sky
557,Wasilla,US,61.5814,-149.4394,51.8,87,90,1.05,light rain
558,Margate,GB,51.3813,1.3862,71.85,71,48,4.0,scattered clouds
559,Saint-Augustin,CA,51.226,-58.6502,56.17,91,100,12.53,overcast clouds
560,Sanok,PL,49.5557,22.2056,79.43,100,84,7.29,broken clouds
561,Nhulunbuy,AU,-12.2333,136.7667,75.2,78,90,12.66,overcast clouds
562,Lujan,AR,-34.5703,-59.105,53.98,91,100,13.11,light rain
563,Cape Coast,GH,5.1053,-1.2466,81.66,75,100,11.21,light rain
564,Venezuela,VE,8.0,-66.0,80.82,75,20,14.05,few clouds
565,Port Orange,US,29.1383,-80.9956,80.98,74,75,4.61,broken clouds
566,Tilichiki,RU,60.4667,166.1,48.76,86,94,2.04,overcast clouds
567,Shingu,JP,33.7333,135.9833,73.9,91,100,3.31,overcast clouds
568,Hata,IN,26.7461,83.7403,84.87,75,81,3.94,light rain
569,Beyneu,KZ,45.3167,55.2,102.51,16,0,13.58,clear sky
570,La Campana,ES,37.5689,-5.4267,89.65,20,5,9.15,clear sky
571,Maiduguri,NG,11.8464,13.1603,102.63,21,23,3.76,few clouds
572,Asau,RO,46.4333,26.4,79.0,64,12,3.18,few clouds
573,Dumraon,IN,25.55,84.15,86.18,73,97,5.57,light rain
574,Teguise,ES,29.0605,-13.564,66.42,83,20,19.57,few clouds
575,Lensk,RU,60.7253,114.9278,73.09,54,83,1.59,broken clouds
576,Kargasok,RU,59.0556,80.8572,65.26,49,77,12.73,broken clouds
577,Athabasca,CA,54.7169,-113.2854,62.29,79,4,5.1,clear sky
578,Keti Bandar,PK,24.1447,67.4497,85.37,70,15,21.7,few clouds
579,Goundam,ML,16.4145,-3.6708,102.33,21,1,2.28,clear sky
580,Benguela,AO,-12.5763,13.4055,80.73,60,48,10.58,scattered clouds
581,Omboue,GA,-1.5746,9.2618,77.16,78,100,9.35,overcast clouds
582,Los Llanos De Aridane,ES,28.6585,-17.9182,73.4,60,75,9.22,broken clouds
583,Guerrero Negro,MX,27.9769,-114.0611,63.09,90,89,11.9,overcast clouds
584,Sterling,US,39.0062,-77.4286,73.0,94,90,6.91,overcast clouds
585,Ornskoldsvik,SE,63.2909,18.7153,67.82,63,90,3.44,overcast clouds
586,Abalak,RU,58.1286,68.5944,73.54,49,93,4.5,overcast clouds
587,Road Town,VG,18.4167,-64.6167,80.64,89,75,11.5,broken clouds
588,Acarau,BR,-2.8856,-40.12,83.14,63,0,8.9,clear sky
589,Clyde River,CA,70.4692,-68.5914,35.83,93,90,16.11,light rain
590,Vao,NC,-22.6667,167.4833,72.34,71,62,19.69,broken clouds
591,Colombia,CU,20.9881,-77.4297,77.72,85,0,10.25,clear sky
592,Bo Phloi,TH,14.3236,99.5161,82.44,73,98,5.57,overcast clouds
593,Cerrito,CO,6.8432,-72.694,47.59,83,100,1.14,overcast clouds
594,Gijon,ES,43.5357,-5.6615,64.99,81,100,1.01,overcast clouds
595,Dospat,BG,41.65,24.1667,82.72,30,25,7.81,scattered clouds
596,Nuuk,GL,64.1835,-51.7216,43.41,93,75,13.8,fog
597,Winsum,NL,53.33,6.5208,73.4,56,75,3.44,broken clouds
598,Saint-Denis,FR,48.9167,2.3333,70.0,68,75,4.61,light rain
599,Wanning,CN,18.8003,110.3967,83.26,86,99,11.45,overcast clouds
600,Fukue,JP,32.6881,128.8419,74.43,83,100,12.68,overcast clouds
601,Chicama,PE,-7.8447,-79.1469,63.14,82,56,4.05,broken clouds
602,Kuybysheve,UA,47.358,36.6491,83.05,57,67,16.22,broken clouds
603,Kieta,PG,-6.2167,155.6333,78.64,86,55,3.78,broken clouds
604,Lubao,PH,14.9167,120.55,87.15,83,100,4.76,overcast clouds
605,Manakara,MG,-22.1333,48.0167,72.39,75,0,8.19,clear sky
606,La Palma,US,33.8464,-118.0467,71.94,83,1,1.01,clear sky
607,Maceio,BR,-9.6658,-35.7353,78.24,65,0,5.75,clear sky
608,Motzorongo,MX,18.6333,-96.7333,69.58,86,100,2.39,overcast clouds
609,Maragogi,BR,-9.0122,-35.2225,78.67,61,36,11.03,scattered clouds
610,Mogadishu,SO,2.0371,45.3438,79.63,76,49,20.07,scattered clouds
611,Oxford,GB,51.7522,-1.256,73.4,64,40,1.99,scattered clouds
612,Rumford,US,44.5537,-70.5509,68.02,83,100,3.0,overcast clouds
613,Troitskoye,RU,52.9821,84.6757,59.58,79,96,5.59,light rain
614,Abasolo,MX,20.45,-101.5167,59.74,87,80,2.91,broken clouds
615,Luganville,VU,-15.5333,167.1667,75.45,83,41,11.45,scattered clouds
616,Porto Belo,BR,-27.1578,-48.5531,69.69,80,60,5.26,broken clouds
617,Xining,CN,36.6167,101.7667,63.39,74,66,1.97,broken clouds
618,Mangai,CD,-4.05,19.5333,99.79,20,36,3.31,scattered clouds
619,Roma,US,43.2128,-75.4557,74.43,74,1,9.22,clear sky
620,Saint-Raymond,CA,45.467,-73.6095,65.91,88,90,3.44,moderate rain
621,Constitucion,CL,-35.3333,-72.4167,43.95,73,0,8.41,clear sky
622,Bubaque,GW,11.2833,-15.8333,81.32,78,98,7.43,light rain
623,Damghan,IR,36.1683,54.348,92.95,10,0,11.41,clear sky
624,Lenger,KZ,42.183,69.8839,87.24,15,6,10.58,clear sky
625,Saint-Ambroise,CA,48.5501,-71.3324,63.14,99,100,7.45,moderate rain
626,Lucapa,AO,-8.4192,20.7447,89.28,18,5,5.35,clear sky
627,Maxixe,MZ,-23.8597,35.3472,82.22,57,0,11.5,clear sky
628,Hamilton,US,39.1834,-84.5333,76.41,84,40,1.99,scattered clouds
629,North Myrtle Beach,US,33.816,-78.68,78.03,97,90,6.91,fog
630,Shasta Lake,US,40.6804,-122.3708,74.8,56,0,5.03,clear sky
631,Tsagan Aman,RU,47.5639,46.7218,101.82,17,100,7.47,overcast clouds
632,Cloquet,US,46.7216,-92.4594,63.28,80,1,3.44,clear sky
633,Winneba,GH,5.3511,-0.6231,84.67,74,100,11.56,light rain
634,Humaita,BR,-7.5061,-63.0208,80.8,66,94,2.28,overcast clouds
635,Boo,SE,59.3333,18.2833,70.03,66,75,10.36,broken clouds
636,Vostok,RU,46.4856,135.8833,61.48,81,2,4.74,clear sky
637,Beeville,US,28.4008,-97.7483,81.95,100,90,4.61,overcast clouds
638,Minas Novas,BR,-17.2186,-42.5903,74.08,41,2,5.66,clear sky
639,Camacha,PT,33.0833,-16.3333,68.76,56,75,11.5,broken clouds
640,Tateyama,JP,34.9833,139.8667,76.01,85,100,3.15,moderate rain
641,Rocha,UY,-34.4833,-54.3333,52.74,79,100,5.26,overcast clouds
642,Antalya,TR,36.7741,30.7178,100.99,22,0,14.97,clear sky
643,Kijabe,KE,-0.933,36.5758,69.4,69,100,1.01,light rain
644,Klyuchi,RU,52.2667,79.1667,65.08,53,100,3.36,overcast clouds
645,Pailon,BO,-17.65,-62.75,74.88,48,80,15.7,broken clouds
646,Tunceli,TR,39.1083,39.5471,92.26,22,3,5.28,clear sky
647,Karratha,AU,-20.7377,116.8463,66.51,41,19,6.49,few clouds
648,Jinchang,CN,38.4953,102.1739,76.23,42,18,6.26,few clouds
649,Krutikha,RU,53.9599,81.2093,63.03,66,100,5.77,overcast clouds
650,Punta,PH,8.9897,125.34,78.28,87,38,4.05,scattered clouds
651,Makeni,SL,8.8833,-12.05,86.97,59,100,3.71,overcast clouds
652,Vasai,IN,19.47,72.8,87.8,70,40,13.8,haze
653,Timra,SE,62.487,17.3257,67.71,60,20,11.5,few clouds
654,Kokopo,PG,-4.352,152.2633,76.6,87,95,4.56,overcast clouds
655,Bud,US,39.447,-86.1758,75.97,84,100,13.78,overcast clouds
656,Malmyzh,RU,56.5205,50.6818,85.86,54,8,8.86,clear sky
657,Bria,CF,6.5423,21.9863,91.15,42,11,4.34,few clouds
658,Kaya,BF,13.0917,-1.0844,95.68,30,9,0.43,clear sky
659,Dzaoudzi,YT,-12.7887,45.2699,82.29,61,0,8.05,clear sky
660,Tobermory,CA,45.2501,-81.6665,64.31,100,100,7.7,overcast clouds
661,Tocopilla,CL,-22.092,-70.1979,62.49,62,58,6.46,broken clouds
662,Kalmunai,LK,7.4167,81.8167,84.4,70,100,5.61,overcast clouds
663,Ust-Maya,RU,60.4167,134.5333,62.74,60,100,2.62,overcast clouds
664,College,US,64.8569,-147.8028,62.26,69,75,3.44,broken clouds
665,Te Anau,NZ,-45.4167,167.7167,47.77,93,100,2.24,overcast clouds
666,San Carlos De Bariloche,AR,-41.1456,-71.3082,32.45,58,0,3.44,clear sky
667,Mana,GF,5.6592,-53.7767,79.39,84,10,8.7,clear sky
668,Dinar,TR,38.065,30.1656,89.38,29,0,16.58,clear sky
669,Caluquembe,AO,-13.7833,14.6833,79.92,16,86,3.65,overcast clouds
670,Nishihara,JP,26.1842,127.7558,80.65,94,40,13.8,scattered clouds
671,Escanaba,US,45.7453,-87.0646,61.95,95,1,0.0,clear sky
672,Santo Antonio Do Ica,BR,-3.1022,-67.9397,76.42,88,8,2.19,clear sky
673,East Stroudsburg,US,40.9995,-75.1813,75.99,89,100,5.53,overcast clouds
674,Kungurtug,RU,50.5994,97.5228,60.3,59,41,4.09,scattered clouds
675,Torrington,US,41.8007,-73.1212,72.55,94,95,1.01,overcast clouds
676,Bacolod,PH,10.6667,122.95,79.93,82,95,2.01,overcast clouds
677,Kawambwa,ZM,-9.7915,29.0791,81.91,21,3,3.38,clear sky
678,Taitung,TW,22.7583,121.1444,80.87,94,40,2.3,scattered clouds
679,Isiro,CD,2.7739,27.616,84.65,48,100,0.65,overcast clouds
680,Nuevitas,CU,21.5453,-77.2644,78.24,77,4,9.19,clear sky
681,Trenggalek,ID,-8.05,111.7167,76.01,96,41,1.77,scattered clouds
682,Morristown,US,36.214,-83.2949,70.0,68,100,1.01,overcast clouds
683,Baoro,CF,5.6667,15.9667,90.32,38,100,4.7,overcast clouds
684,Collie,AU,-33.3667,116.15,48.97,64,0,6.85,clear sky
685,Hokitika,NZ,-42.7167,170.9667,53.67,92,100,4.45,overcast clouds
686,Banda Aceh,ID,5.5577,95.3222,79.81,81,95,16.28,light rain
687,Davila,PH,18.4726,120.5763,84.18,82,98,11.34,overcast clouds
688,Elban,RU,50.1018,136.5094,60.1,98,100,2.89,light rain
689,Poienile De Sub Munte,RO,47.8167,24.4333,76.14,59,6,5.03,clear sky
690,Grand-Santi,GF,4.25,-54.3833,81.48,70,45,4.18,scattered clouds
691,Derbent,RU,42.0678,48.2899,88.32,40,26,6.22,scattered clouds
692,Suluq,LY,31.6682,20.2521,103.78,13,0,22.28,clear sky
693,Manyana,BW,-23.4,21.7167,75.45,15,0,6.85,clear sky
694,Grindavik,IS,63.8424,-22.4338,55.87,62,0,26.46,clear sky
695,Bombay,IN,19.0144,72.8479,87.78,74,40,10.36,haze
696,Panacan,PH,9.2463,118.4082,82.51,75,98,2.04,overcast clouds
697,Kuah,MY,6.3265,99.8432,85.98,79,20,2.3,few clouds
698,Erdenet,MN,49.0333,104.0833,64.4,64,70,6.35,broken clouds
699,Villa Constitucion,AR,-33.2278,-60.3297,48.97,80,100,14.61,overcast clouds
700,Dehui,CN,44.5333,125.7,68.31,95,91,7.4,overcast clouds
701,Priladozhskiy,RU,59.85,31.4833,78.46,79,100,5.39,overcast clouds
702,Kayerkan,RU,69.3497,87.7602,47.19,56,58,23.44,broken clouds
703,Kalabo,ZM,-14.97,22.6814,84.85,17,10,4.27,clear sky
704,Manaure,CO,11.7751,-72.4445,82.51,72,100,10.89,overcast clouds
705,Aurangabad,IN,19.8833,75.3333,82.33,61,99,13.71,overcast clouds
706,Yatou,CN,37.15,122.3833,70.97,85,87,11.5,overcast clouds
707,Pacific Grove,US,36.6177,-121.9166,60.03,92,90,3.0,mist
708,Aranos,NA,-24.1333,19.1167,73.69,13,0,7.34,clear sky
709,Khandyga,RU,62.6667,135.6,66.2,62,21,3.67,few clouds
710,Kourou,GF,5.1552,-52.6478,82.45,81,13,7.87,few clouds
711,Copiapo,CL,-27.3667,-70.3333,47.89,63,49,1.77,scattered clouds
712,El Alto,PE,-4.2714,-81.2147,66.07,75,1,8.7,clear sky
713,Mnogovershinnyy,RU,53.9353,139.9242,48.34,73,100,2.68,overcast clouds
714,Ukiah,US,39.1502,-123.2078,71.65,81,1,4.61,clear sky
